[
  {
    "name": "Սպիտակ",
    "area": "Լոռու մարզ",
    "latitude": "41.1100",
    "longitude": "44.1100",
    "temperature": 22,
    "rainfall": 600,
    "humidity": "70%",
    "season": "Ձմեռը սառը, ամառը մեղմ",
    "soilType": "Լեռնային սևահողեր",
    "winterTemperature": 16,
    "summerDayTemp": 28
  },
  {
    "name": "Հոբարձի",
    "area": "Լոռու մարզ",
    "latitude": "41.1200",
    "longitude": "44.1200",
    "temperature": 22,
    "rainfall": 610,
    "humidity": "71%",
    "season": "Ձմեռը սառը, ամառը մեղմ",
    "soilType": "Լեռնային սևահողեր",
    "springDayTemp": 16,
    "summerDayTemp": 27
  },
  {
    "name": "Ղուրսալի",
    "area": "Լոռու մարզ",
    "latitude": "41.1300",
    "longitude": "44.1300",
    "temperature": 22,
    "rainfall": 615,
    "humidity": "71%",
    "season": "Ձմեռը սառը, ամառը մեղմ",
    "soilType": "Լեռնային սևահողեր",
    "springDayTemp": 15,
    "summerDayTemp": 29
  },
  {
    "name": "Լեռնանցք",
    "area": "Լոռու մարզ",
    "latitude": "41.1400",
    "longitude": "44.1400",
    "temperature": 22,
    "rainfall": 620,
    "humidity": "72%",
    "season": "Ձմեռը սառը, ամառը մեղմ",
    "soilType": "Լեռնային սևահողեր",
    "springDayTemp": 15,
    "summerDayTemp": 28
  },
  {
    "name": "Սարալանջ",
    "area": "Լոռու մարզ",
    "latitude": "41.1500",
    "longitude": "44.1500",
    "temperature": 23,
    "rainfall": 625,
    "humidity": "72%",
    "season": "Ձմեռը սառը, ամառը մեղմ",
    "soilType": "Լեռնային սևահողեր",
    "springDayTemp": 18,
    "summerDayTemp": 28
  },
  {
    "name": "Տաշիր",
    "area": "Լոռու մարզ",
    "latitude": "41.1600",
    "longitude": "44.1600",
    "temperature": 23,
    "rainfall": 630,
    "humidity": "72%",
    "season": "Ձմեռը սառը, ամառը մեղմ",
    "soilType": "Լեռնային սևահողեր",
    "springDayTemp": 17,
    "summerDayTemp": 29
  },
  {
    "name": "Սարչպետ",
    "area": "Լոռու մարզ",
    "latitude": "41.1700",
    "longitude": "44.1700",
    "temperature": 21,
    "rainfall": 635,
    "humidity": "73%",
    "season": "Ձմեռը սառը, ամառը մեղմ",
    "soilType": "Լեռնային սևահողեր",
    "springDayTemp": 15,
    "summerDayTemp": 27
  },
  {
    "name": "Մեծավան",
    "area": "Լոռու մարզ",
    "latitude": "41.1800",
    "longitude": "44.1800",
    "temperature": 22,
    "rainfall": 640,
    "humidity": "73%",
    "season": "Ձմեռը սառը, ամառը մեղմ",
    "soilType": "Լեռնային սևահողեր",
    "springDayTemp": 16,
    "summerDayTemp": 29
  },
  {
    "name": "Ուռուտ",
    "area": "Լոռու մարզ",
    "latitude": "41.1900",
    "longitude": "44.1900",
    "temperature": 24,
    "rainfall": 645,
    "humidity": "73%",
    "season": "Ձմեռը սառը, ամառը մեղմ",
    "soilType": "Լեռնային սևահողեր",
    "springDayTemp": 17,
    "summerDayTemp": 32
  },
  {
    "name": "Կաթնառատ",
    "area": "Լոռու մարզ",
    "latitude": "41.2000",
    "longitude": "44.2000",
    "temperature": 22,
    "rainfall": 650,
    "humidity": "74%",
    "season": "Ձմեռը սառը, ամառը մեղմ",
    "soilType": "Լեռնային սևահողեր",
    "springDayTemp": 16,
    "summerDayTemp": 27
  },
  {
    "name": "Բլագորադնոե",
    "area": "Լոռու մարզ",
    "latitude": "41.2100",
    "longitude": "44.2100",
    "temperature": 26,
    "rainfall": 655,
    "humidity": "74%",
    "season": "Ձմեռը սառը, ամառը մեղմ",
    "soilType": "Լեռնային սևահողեր",
    "springDayTemp": 19,
    "summerDayTemp": 32
  },
  {
    "name": "Նովոսելցվո",
    "area": "Լոռու մարզ",
    "latitude": "41.2200",
    "longitude": "44.2200",
    "temperature": 22,
    "rainfall": 660,
    "humidity": "74%",
    "season": "Ձմեռը սառը, ամառը մեղմ",
    "soilType": "Լեռնային սևահողեր",
    "springDayTemp": 15,
    "summerDayTemp": 28
  },
  {
    "name": "Ստեփանավան",
    "area": "Լոռու մարզ",
    "latitude": "41.2300",
    "longitude": "44.2300",
    "temperature": 23,
    "rainfall": 665,
    "humidity": "75%",
    "season": "Ձմեռը սառը, ամառը մեղմ",
    "soilType": "Լեռնային սևահողեր",
    "springDayTemp": 15,
    "summerDayTemp": 31
  },
  {
    "name": "Արտամետ",
    "area": "Արմավիրի մարզ",
    "latitude": "40.2800",
    "longitude": "44.5560",
    "temperature": 23,
    "rainfall": 650,
    "humidity": "50%–70%",
    "season": "Ապրիլ–Հոկտեմբեր",
    "soilType": "Կուլտուր ոռոգելի հողեր",
    "springDayTemp": 17,
    "summerDayTemp": 29
  },
  {
    "name": "Վանանդ",
    "area": "Արմավիրի մարզ",
    "latitude": "40.10318",
    "longitude": "43.82287",
    "temperature": 22,
    "rainfall": 580,
    "humidity": "50%–70%",
    "season": "Ապրիլ–Հոկտեմբեր",
    "soilType": "Կուլտուր ոռոգելի հողեր",
    "springDayTemp": 16,
    "summerDayTemp": 29
  },
  {
    "name": "Նորապատ",
    "area": "Արմավիրի մարզ",
    "latitude": "40.14174",
    "longitude": "44.03035",
    "temperature": 23,
    "rainfall": 560,
    "humidity": "50%–70%",
    "season": "Ապրիլ–Հոկտեմբեր",
    "soilType": "Կուլտուր ոռոգելի հողեր",
    "springDayTemp": 16,
    "summerDayTemp": 30
  },
  {
    "name": "Սարդարապատ",
    "area": "Արմավիրի մարզ",
    "latitude": "40.1800",
    "longitude": "44.0500",
    "temperature": 24,
    "rainfall": 560,
    "humidity": "50%–70%",
    "season": "Ապրիլ–Հոկտեմբեր",
    "soilType": "Կուլտուր ոռոգելի հողեր",
    "springDayTemp": 18,
    "summerDayTemp": 29
  },
  {
    "name": "Նալբանդյան",
    "area": "Արմավիրի մարզ",
    "latitude": "40.1690",
    "longitude": "44.1500",
    "temperature": 24,
    "rainfall": 560,
    "humidity": "50%–70%",
    "season": "Ապրիլ–Հոկտեմբեր",
    "soilType": "Կուլտուր ոռոգելի հողեր",
    "springDayTemp": 18,
    "summerDayTemp": 31
  },
  {
    "name": "Ջանֆրիդա",
    "area": "Արմավիրի մարզ",
    "latitude": "40.1200",
    "longitude": "44.0800",
    "temperature": 24,
    "rainfall": 560,
    "humidity": "50%–70%",
    "season": "Ապրիլ–Հոկտեմբեր",
    "soilType": "Կուլտուր ոռոգելի հողեր",
    "springDayTemp": 17,
    "summerDayTemp": 30
  },
  {
    "name": "Արագած",
    "area": "Արմավիրի մարզ",
    "latitude": "40.2500",
    "longitude": "44.4000",
    "temperature": 24,
    "rainfall": 600,
    "humidity": "50%–70%",
    "season": "Ապրիլ–Հոկտեմբեր",
    "soilType": "Կուլտուր ոռոգելի հողեր",
    "springDayTemp": 18,
    "summerDayTemp": 30
  },
  {
    "name": "Գեղակերտ",
    "area": "Արմավիրի մարզ",
    "latitude": "40.1500",
    "longitude": "44.1200",
    "temperature": 24,
    "rainfall": 560,
    "humidity": "50%–70%",
    "season": "Ապրիլ–Հոկտեմբեր",
    "soilType": "Կուլտուր ոռոգելի հողեր",
    "springDayTemp": 18,
    "summerDayTemp": 29
  },
  {
    "name": "Հայթաղ",
    "area": "Արմավիրի մարզ",
    "latitude": "40.2000",
    "longitude": "44.2000",
    "temperature": 24,
    "rainfall": 560,
    "humidity": "50%–70%",
    "season": "Ապրիլ–Հոկտեմբեր",
    "soilType": "Կուլտուր ոռոգելի հողեր",
    "springDayTemp": 17,
    "summerDayTemp": 32
  },
  {
    "name": "Առատաշեն",
    "area": "Արմավիրի մարզ",
    "latitude": "40.2300",
    "longitude": "44.1800",
    "temperature": 26,
    "rainfall": 560,
    "humidity": "50%–70%",
    "season": "Ապրիլ–Հոկտեմբեր",
    "soilType": "Կուլտուր ոռոգելի հողեր",
    "springDayTemp": 19,
    "summerDayTemp": 32
  },
  {
    "name": "Գրիբոյեդով",
    "area": "Արմավիրի մարզ",
    "latitude": "40.1400",
    "longitude": "44.1100",
    "temperature": 24,
    "rainfall": 560,
    "humidity": "50%–70%",
    "season": "Ապրիլ–Հոկտեմբեր",
    "soilType": "Կուլտուր ոռոգելի հողեր",
    "springDayTemp": 19,
    "summerDayTemp": 29
  },
  {
    "name": "Մուսալեռ",
    "area": "Արմավիրի մարզ",
    "latitude": "40.1250",
    "longitude": "44.0950",
    "temperature": 22,
    "rainfall": 560,
    "humidity": "50%–70%",
    "season": "Ապրիլ–Հոկտեմբեր",
    "soilType": "Կուլտուր ոռոգելի հողեր",
    "springDayTemp": 16,
    "summerDayTemp": 29
  },
  {
    "name": "Խորոնք",
    "area": "Արմավիրի մարզ",
    "latitude": "40.1650",
    "longitude": "44.1300",
    "temperature": 25,
    "rainfall": 560,
    "humidity": "50%–70%",
    "season": "Ապրիլ–Հոկտեմբեր",
    "soilType": "Կուլտուր ոռոգելի հողեր",
    "springDayTemp": 19,
    "summerDayTemp": 31
  },
  {
    "name": "Փարաքար",
    "area": "Արմավիրի մարզ",
    "latitude": "40.1450",
    "longitude": "44.1000",
    "temperature": 24,
    "rainfall": 560,
    "humidity": "50%–70%",
    "season": "Ապրիլ–Հոկտեմբեր",
    "soilType": "Կուլտուր ոռոգելի հողեր",
    "springDayTemp": 17,
    "summerDayTemp": 30
  },
  {
    "name": "Մերձավան",
    "area": "Արմավիրի մարզ",
    "latitude": "40.1500",
    "longitude": "44.1400",
    "temperature": 24,
    "rainfall": 560,
    "humidity": "50%–70%",
    "season": "Ապրիլ–Հոկտեմբեր",
    "soilType": "Կուլտուր ոռոգելի հողեր",
    "springDayTemp": 18,
    "summerDayTemp": 29
  },
  {
    "name": "Բաղրամյան",
    "area": "Արմավիրի մարզ",
    "latitude": "40.1550",
    "longitude": "44.1600",
    "temperature": 24,
    "rainfall": 560,
    "humidity": "50%–70%",
    "season": "Ապրիլ–Հոկտեմբեր",
    "soilType": "Կուլտուր ոռոգելի հողեր",
    "springDayTemp": 19,
    "summerDayTemp": 29
  },
  {
    "name": "Ղուկասավան",
    "area": "Արարատի մարզ ",
    "latitude": "41.0469",
    "longitude": "44.5817",
    "temperature": 24,
    "rainfall": 700,
    "humidity": "75%",
    "season": "Սառնաշունչ ձմեռ, զով ամառ",
    "soilType": "Կուլտուր ոռոգելի հողեր",
    "springDayTemp": 18,
    "summerDayTemp": 29
  },
  {
    "name": "Գետափնյա",
    "area": "Արարատի մարզ ",
    "latitude": "41.0150",
    "longitude": "44.5360",
    "temperature": 24,
    "rainfall": 650,
    "humidity": "73%",
    "season": "Սառնաշունչ ձմեռ, զով ամառ",
    "soilType": "Կուլտուր ոռոգելի հողեր",
    "springDayTemp": 18,
    "summerDayTemp": 30
  },
  {
    "name": "Այնթափ",
    "area": "Արարատի մարզ ",
    "latitude": "39.5528",
    "longitude": "45.2625",
    "temperature": 25,
    "rainfall": 600,
    "humidity": "62%",
    "season": "Սառնաշունչ ձմեռ, շոգ ամառ",
    "soilType": "Կուլտուր ոռոգելի հողեր",
    "springDayTemp": 17,
    "summerDayTemp": 33
  },
  {
    "name": "Նոր Խարբերդ",
    "area": "Արարատի մարզ",
    "latitude": "39.8567",
    "longitude": "44.5289",
    "temperature": 25,
    "rainfall": 560,
    "humidity": "60%",
    "season": "Ձմեռը մեղմ է, ամառը շոգ",
    "soilType": "Կուլտուր ոռոգելի հողեր",
    "springDayTemp": 19,
    "summerDayTemp": 31
  },
  {
    "name": "Նոր Կյուրին",
    "area": "Արարատի մարզ ",
    "latitude": "39.5978",
    "longitude": "44.9983",
    "temperature": 24,
    "rainfall": 650,
    "humidity": "64%",
    "season": "Ձմեռը ցուրտ, ամառը տաք",
    "soilType": "Կուլտուր ոռոգելի հողեր",
    "springDayTemp": 18,
    "summerDayTemp": 31
  },
  {
    "name": "Աբովյան",
    "area": "Արարատի մարզ",
    "latitude": "40.2737",
    "longitude": "44.6335",
    "temperature": 24,
    "rainfall": 500,
    "humidity": "68%",
    "season": "Ձմեռը ցուրտ, ամառը զով",
    "soilType": "Կուլտուր ոռոգելի հողեր",
    "springDayTemp": 18,
    "summerDayTemp": 30
  },
  {
    "name": "Մարմարաշեն",
    "area": "Արարատի մարզ",
    "latitude": "40.2883",
    "longitude": "45.4794",
    "temperature": 25,
    "rainfall": 600,
    "humidity": "77%",
    "season": "Երկար ու ցուրտ ձմեռ, կարճ ամառ",
    "soilType": "Կուլտուր ոռոգելի հողեր",
    "springDayTemp": 18,
    "summerDayTemp": 32
  },
  {
    "name": "Գետազատ",
    "area": "Արարատի մարզ",
    "latitude": "40.1106",
    "longitude": "44.1206",
    "temperature": 24,
    "rainfall": 520,
    "humidity": "59%",
    "season": "Ձմեռը մեղմ է, ամառը շոգ ու չոր",
    "soilType": "Կուլտուր ոռոգելի հողեր",
    "springDayTemp": 16,
    "summerDayTemp": 32
  },
  {
    "name": "Արևշատ",
    "area": "Արարատի մարզ",
    "latitude": "39.5722",
    "longitude": "45.0000",
    "temperature": 24,
    "rainfall": 620,
    "humidity": "65%",
    "season": "Ձմեռը ցուրտ, ամառը տաք ու չոր",
    "soilType": "Կուլտուր ոռոգելի հողեր",
    "springDayTemp": 19,
    "summerDayTemp": 30
  },
  {
    "name": "Դեղձուտ",
    "area": "Արարատի մարզ",
    "latitude": "40.2142",
    "longitude": "44.2000",
    "temperature": 23,
    "rainfall": 700,
    "humidity": "70%",
    "season": "Ձմեռը ցուրտ, ամառը զով",
    "soilType": "Կուլտուր ոռոգելի հողեր",
    "springDayTemp": 16,
    "summerDayTemp": 30
  },
  {
    "name": "Մխչյան",
    "area": "Արարատի մարզ",
    "latitude": "40.8972",
    "longitude": "45.2278",
    "temperature": 25,
    "rainfall": 800,
    "humidity": "80%",
    "season": "Ձմեռը մեղմ, ամառը խոնավ",
    "soilType": "Կուլտուր ոռոգելի հողեր",
    "springDayTemp": 17,
    "summerDayTemp": 33
  },
  {
    "name": "Բյուրավան",
    "area": "Արարատի մարզ",
    "latitude": "40.2911",
    "longitude": "44.5906",
    "temperature": 24,
    "rainfall": 600,
    "humidity": "66%",
    "season": "Ձմեռը ցուրտ, ամառը զով",
    "soilType": "Կուլտուր ոռոգելի հողեր",
    "springDayTemp": 19,
    "summerDayTemp": 29
  },
  {
    "name": "Կանաչուտ",
    "area": "Արարատի մարզ",
    "latitude": "39.9694",
    "longitude": "44.4325",
    "temperature": 24,
    "rainfall": 550,
    "humidity": "61%",
    "season": "Ձմեռը մեղմ, ամառը շոգ",
    "soilType": "Կուլտուր ոռոգելի հողեր",
    "springDayTemp": 18,
    "summerDayTemp": 30
  },
  {
    "name": "Վարդաշեն",
    "area": "Արարատի մարզ",
    "latitude": "39.6694",
    "longitude": "44.8658",
    "temperature": 25,
    "rainfall": 660,
    "humidity": "66%",
    "season": "Ձմեռը ցուրտ, ամառը տաք",
    "soilType": "Կուլտուր ոռոգելի հողեր",
    "springDayTemp": 18,
    "summerDayTemp": 32
  },
  {
    "name": "Քաղցրաշեն",
    "area": "Արարատի մարզ",
    "latitude": "39.9717",
    "longitude": "44.6694",
    "temperature": 24,
    "rainfall": 590,
    "humidity": "63%",
    "season": "Ձմեռը մեղմ, ամառը շոգ ու չոր",
    "soilType": "Կուլտուր ոռոգելի հողեր",
    "springDayTemp": 18,
    "summerDayTemp": 31
  },
  {
    "name": "Վեդի",
    "area": "Արարատի մարզ",
    "latitude": "39.9833",
    "longitude": "44.8333",
    "temperature": 24,
    "rainfall": 570,
    "humidity": "58%",
    "season": "Ձմեռը մեղմ, ամառը շոգ",
    "soilType": "Կուլտուր ոռոգելի հողեր",
    "springDayTemp": 19,
    "summerDayTemp": 29
  },
  {
    "name": "Գոռավան",
    "area": "Արարատի մարզ",
    "latitude": "40.0494",
    "longitude": "44.7497",
    "temperature": 23,
    "rainfall": 550,
    "humidity": "60%",
    "season": "Ձմեռը մեղմ, ամառը շոգ",
    "soilType": "Կուլտուր ոռոգելի հողեր",
    "springDayTemp": 16,
    "summerDayTemp": 30
  },
  {
    "name": "Դաշտաքար",
    "area": "Արարատի մարզ",
    "latitude": "39.9411",
    "longitude": "44.6267",
    "temperature": 24,
    "rainfall": 570,
    "humidity": "62%",
    "season": "Ձմեռը մեղմ, ամառը տաք",
    "soilType": "Կուլտուր ոռոգելի հողեր",
    "springDayTemp": 17,
    "summerDayTemp": 32
  },
  {
    "name": "Այգեզարդ",
    "area": "Արարատի մարզ",
    "latitude": "39.9797",
    "longitude": "44.0647",
    "temperature": 24,
    "rainfall": 530,
    "humidity": "61%",
    "season": "Ձմեռը մեղմ, ամառը շոգ",
    "soilType": "Կուլտուր ոռոգելի հողեր",
    "springDayTemp": 19,
    "summerDayTemp": 29
  },
  {
    "name": "Այգեպատ",
    "area": "Արարատի մարզ",
    "latitude": "40.0369",
    "longitude": "44.2575",
    "temperature": 24,
    "rainfall": 540,
    "humidity": "62%",
    "season": "Ձմեռը մեղմ, ամառը շոգ",
    "soilType": "Կուլտուր ոռոգելի հողեր",
    "springDayTemp": 17,
    "summerDayTemp": 32
  },
  {
    "name": "Ոսկետափ",
    "area": "Արարատի մարզ",
    "latitude": "40.0894",
    "longitude": "44.2961",
    "temperature": 24,
    "rainfall": 510,
    "humidity": "60%",
    "season": "Ձմեռը մեղմ, ամառը շոգ ու չոր",
    "soilType": "Կուլտուր ոռոգելի հողեր",
    "springDayTemp": 17,
    "summerDayTemp": 32
  },
  {
    "name": "Արարատ",
    "area": "Արարատի մարզ",
    "latitude": "39.9500",
    "longitude": "44.9514",
    "temperature": 24,
    "rainfall": 560,
    "humidity": "61%",
    "season": "Ձմեռը մեղմ, ամառը շոգ",
    "soilType": "Կուլտուր ոռոգելի հողեր",
    "springDayTemp": 17,
    "summerDayTemp": 30
  },
  {
    "name": "Արարատ գյուղ",
    "area": "Արարատի մարզ",
    "latitude": "39.9678",
    "longitude": "44.9583",
    "temperature": 24,
    "rainfall": 560,
    "humidity": "61%",
    "season": "Ձմեռը մեղմ, ամառը շոգ",
    "soilType": "Կուլտուր ոռոգելի հողեր",
    "springDayTemp": 17,
    "summerDayTemp": 31
  },
  {
    "name": "Խաչփար",
    "area": "Արարատի մարզ",
    "latitude": "39.9633",
    "longitude": "44.8322",
    "temperature": 25,
    "rainfall": 570,
    "humidity": "61%",
    "season": "Ձմեռը մեղմ, ամառը շոգ",
    "soilType": "Աղուտ և ալկալի հողեր",
    "springDayTemp": 18,
    "summerDayTemp": 32
  },
  {
    "name": "Հայանիստ",
    "area": "Արարատի մարզ",
    "latitude": "40.0030",
    "longitude": "44.7735",
    "temperature": 25,
    "rainfall": 560,
    "humidity": "60%",
    "season": "Ձմեռը մեղմ, ամառը շոգ",
    "soilType": "Աղուտ և ալկալի հողեր",
    "springDayTemp": 18,
    "summerDayTemp": 32
  },
  {
    "name": "Դարակերտ",
    "area": "Արարատի մարզ",
    "latitude": "39.9711",
    "longitude": "44.7033",
    "temperature": 25,
    "rainfall": 580,
    "humidity": "62%",
    "season": "Ձմեռը մեղմ, ամառը շոգ",
    "soilType": "Աղուտ և ալկալի հողեր",
    "springDayTemp": 19,
    "summerDayTemp": 31
  },
  {
    "name": "Սիփանիկ",
    "area": "Արարատի մարզ",
    "latitude": "39.9444",
    "longitude": "44.6833",
    "temperature": 26,
    "rainfall": 570,
    "humidity": "61%",
    "season": "Ձմեռը մեղմ, ամառը շոգ",
    "soilType": "Աղուտ և ալկալի հողեր",
    "springDayTemp": 18,
    "summerDayTemp": 33
  },
  {
    "name": "Նորաբաց",
    "area": "Արարատի մարզ",
    "latitude": "39.9783",
    "longitude": "44.7483",
    "temperature": 24,
    "rainfall": 560,
    "humidity": "60%",
    "season": "Ձմեռը մեղմ, ամառը շոգ",
    "soilType": "Աղուտ և ալկալի հողեր",
    "springDayTemp": 19,
    "summerDayTemp": 29
  },
  {
    "name": "Զորակ",
    "area": "Արարատի մարզ",
    "latitude": "40.0117",
    "longitude": "44.7089",
    "temperature": 24,
    "rainfall": 555,
    "humidity": "60%",
    "season": "Ձմեռը մեղմ, ամառը շոգ",
    "soilType": "Աղուտ և ալկալի հողեր",
    "springDayTemp": 16,
    "summerDayTemp": 31
  },
  {
    "name": "Սիս",
    "area": "Արարատի մարզ",
    "latitude": "39.9333",
    "longitude": "44.7000",
    "temperature": 26,
    "rainfall": 570,
    "humidity": "61%",
    "season": "Ձմեռը մեղմ, ամառը շոգ",
    "soilType": "Աղուտ և ալկալի հողեր",
    "springDayTemp": 18,
    "summerDayTemp": 33
  },
  {
    "name": "Արևաքույր",
    "area": "Արարատի մարզ",
    "latitude": "40.0200",
    "longitude": "44.7500",
    "temperature": 24,
    "rainfall": 560,
    "humidity": "60%",
    "season": "Ձմեռը մեղմ, ամառը շոգ",
    "soilType": "Աղուտ և ալկալի հողեր",
    "springDayTemp": 19,
    "summerDayTemp": 30
  },
  {
    "name": "Մրգավետ",
    "area": "Արարատի մարզ",
    "latitude": "40.0239",
    "longitude": "44.7222",
    "temperature": 24,
    "rainfall": 560,
    "humidity": "61%",
    "season": "Ձմեռը մեղմ, ամառը շոգ",
    "soilType": "Աղուտ և ալկալի հողեր",
    "springDayTemp": 16,
    "summerDayTemp": 33
  },
  {
    "name": "Հովտաշեն",
    "area": "Արարատի մարզ",
    "latitude": "40.0300",
    "longitude": "44.7300",
    "temperature": 24,
    "rainfall": 555,
    "humidity": "60%",
    "season": "Ձմեռը մեղմ, ամառը շոգ",
    "soilType": "Աղուտ և ալկալի հողեր",
    "springDayTemp": 17,
    "summerDayTemp": 31
  },
  {
    "name": "Արաքսավան",
    "area": "Արարատի մարզ",
    "latitude": "39.9900",
    "longitude": "44.7000",
    "temperature": 25,
    "rainfall": 570,
    "humidity": "61%",
    "season": "Ձմեռը մեղմ, ամառը շոգ",
    "soilType": "Աղուտ և ալկալի հողեր",
    "springDayTemp": 17,
    "summerDayTemp": 33
  },
  {
    "name": "Մասիս գյուղ",
    "area": "Արարատի մարզ",
    "latitude": "39.9767",
    "longitude": "44.7578",
    "temperature": 25,
    "rainfall": 560,
    "humidity": "60%",
    "season": "Ձմեռը մեղմ, ամառը շոգ",
    "soilType": "Աղուտ և ալկալի հողեր",
    "springDayTemp": 17,
    "summerDayTemp": 33
  },
  {
    "name": "Բուրաստան",
    "area": "Արարատի մարզ",
    "latitude": "39.9900",
    "longitude": "44.8000",
    "temperature": 24,
    "rainfall": 560,
    "humidity": "60%",
    "season": "Ձմեռը մեղմ, ամառը շոգ",
    "soilType": "Աղուտ և ալկալի հողեր",
    "springDayTemp": 17,
    "summerDayTemp": 31
  },
  {
    "name": "Ազատավան",
    "area": "Արարատի մարզ",
    "latitude": "39.9850",
    "longitude": "44.7650",
    "temperature": 24,
    "rainfall": 560,
    "humidity": "60%",
    "season": "Ձմեռը մեղմ, ամառը շոգ",
    "soilType": "Աղուտ և ալկալի հողեր",
    "springDayTemp": 17,
    "summerDayTemp": 32
  },
  {
    "name": "Բերքանուշ",
    "area": "Արարատի մարզ",
    "latitude": "40.0000",
    "longitude": "44.7500",
    "temperature": 24,
    "rainfall": 555,
    "humidity": "60%",
    "season": "Ձմեռը մեղմ, ամառը շոգ",
    "soilType": "Աղուտ և ալկալի հողեր",
    "springDayTemp": 18,
    "summerDayTemp": 29
  },
  {
    "name": "Շահումյան",
    "area": "Արարատի մարզ",
    "latitude": "40.0100",
    "longitude": "44.7400",
    "temperature": 24,
    "rainfall": 560,
    "humidity": "60%",
    "season": "Ձմեռը մեղմ, ամառը շոգ",
    "soilType": "Աղուտ և ալկալի հողեր",
    "springDayTemp": 17,
    "summerDayTemp": 31
  },
  {
    "name": "Տափերական",
    "area": "Արարատի մարզ",
    "latitude": "40.0050",
    "longitude": "44.7300",
    "temperature": 24,
    "rainfall": 560,
    "humidity": "60%",
    "season": "Ձմեռը մեղմ, ամառը շոգ",
    "soilType": "Աղուտ և ալկալի հողեր",
    "springDayTemp": 16,
    "summerDayTemp": 31
  },
  {
    "name": "Փոքր Վեդի",
    "area": "Արարատի մարզ",
    "latitude": "39.9900",
    "longitude": "44.8400",
    "temperature": 24,
    "rainfall": 570,
    "humidity": "60%",
    "season": "Ձմեռը մեղմ, ամառը շոգ",
    "soilType": "Աղուտ և ալկալի հողեր",
    "springDayTemp": 17,
    "summerDayTemp": 31
  },
  {
    "name": "Լուսառատ",
    "area": "Արարատի մարզ",
    "latitude": "39.9800",
    "longitude": "44.7500",
    "temperature": 24,
    "rainfall": 560,
    "humidity": "60%",
    "season": "Ձմեռը մեղմ, ամառը շոգ",
    "soilType": "Աղուտ և ալկալի հողեր",
    "springDayTemp": 18,
    "summerDayTemp": 31
  },
  {
    "name": "Եղեգնավան",
    "area": "Արարատի մարզ",
    "latitude": "40.0500",
    "longitude": "44.7700",
    "temperature": 23,
    "rainfall": 560,
    "humidity": "60%",
    "season": "Ձմեռը մեղմ, ամառը շոգ",
    "soilType": "Աղուտ և ալկալի հողեր",
    "springDayTemp": 17,
    "summerDayTemp": 29
  },
  {
    "name": "Այգավան",
    "area": "Արարատի մարզ",
    "latitude": "39.9900",
    "longitude": "44.7300",
    "temperature": 25,
    "rainfall": 560,
    "humidity": "60%",
    "season": "Ձմեռը մեղմ, ամառը շոգ",
    "soilType": "Աղուտ և ալկալի հողեր",
    "springDayTemp": 18,
    "summerDayTemp": 32
  },
  {
    "name": "Նոր Կյանք",
    "area": "Արարատի մարզ",
    "latitude": "39.9750",
    "longitude": "44.7550",
    "temperature": 23,
    "rainfall": 560,
    "humidity": "60%",
    "season": "Ձմեռը մեղմ, ամառը շոգ",
    "soilType": "Աղուտ և ալկալի հողեր",
    "springDayTemp": 17,
    "summerDayTemp": 29
  },
  {
    "name": "Նորավան",
    "area": "Արմավիրի մարզ",
    "latitude": "40.0833",
    "longitude": "44.2500",
    "temperature": 23,
    "rainfall": 550,
    "humidity": "60%",
    "season": "Ձմեռը մեղմ, ամառը շոգ",
    "soilType": "Աղուտ և ալկալի հողեր",
    "springDayTemp": 17,
    "summerDayTemp": 29
  },
  {
    "name": "Օշական",
    "area": "Աշտարակի մարզ",
    "latitude": "40.2800",
    "longitude": "44.2740",
    "temperature": 24,
    "rainfall": 650,
    "humidity": "65%",
    "season": "Ձմեռը ցուրտ, ամառը զով",
    "soilType": "Լեռնաշագանակագույն հողեր",
    "springDayTemp": 19,
    "summerDayTemp": 28
  },
  {
    "name": "Սասունիկ",
    "area": "Աշտարակի մարզ",
    "latitude": "40.2590",
    "longitude": "44.2780",
    "temperature": 25,
    "rainfall": 640,
    "humidity": "65%",
    "season": "Ձմեռը ցուրտ, ամառը զով",
    "soilType": "Լեռնաշագանակագույն հողեր",
    "springDayTemp": 19,
    "summerDayTemp": 31
  },
  {
    "name": "Ոսկեվազ",
    "area": "Աշտարակի մարզ",
    "latitude": "40.2780",
    "longitude": "44.2910",
    "temperature": 22,
    "rainfall": 645,
    "humidity": "65%",
    "season": "Ձմեռը ցուրտ, ամառը զով",
    "soilType": "Լեռնաշագանակագույն հողեր",
    "springDayTemp": 16,
    "summerDayTemp": 28
  },
  {
    "name": "Ուջան",
    "area": "Աշտարակի մարզ",
    "latitude": "40.2630",
    "longitude": "44.2800",
    "temperature": 22,
    "rainfall": 640,
    "humidity": "65%",
    "season": "Ձմեռը ցուրտ, ամառը զով",
    "soilType": "Լեռնաշագանակագույն հողեր",
    "springDayTemp": 16,
    "summerDayTemp": 28
  },
  {
    "name": "Արտենի",
    "area": "Աշտարակի մարզ",
    "latitude": "40.2970",
    "longitude": "44.3000",
    "temperature": 23,
    "rainfall": 660,
    "humidity": "65%",
    "season": "Ձմեռը ցուրտ, ամառը զով",
    "soilType": "Լեռնաշագանակագույն հողեր",
    "springDayTemp": 19,
    "summerDayTemp": 27
  },
  {
    "name": "Դավթաշեն",
    "area": "Աշտարակի մարզ",
    "latitude": "40.3100",
    "longitude": "44.3100",
    "temperature": 21,
    "rainfall": 660,
    "humidity": "65%",
    "season": "Ձմեռը ցուրտ, ամառը զով",
    "soilType": "Լեռնաշագանակագույն հողեր",
    "springDayTemp": 15,
    "summerDayTemp": 27
  },
  {
    "name": "Բյուրական",
    "area": "Աշտարակի մարզ",
    "latitude": "40.3200",
    "longitude": "44.3200",
    "temperature": 24,
    "rainfall": 670,
    "humidity": "66%",
    "season": "Ձմեռը ցուրտ, ամառը զով",
    "soilType": "Լեռնաշագանակագույն հողեր",
    "springDayTemp": 19,
    "summerDayTemp": 30
  },
  {
    "name": "Արագածավան",
    "area": "Աշտարակի մարզ",
    "latitude": "40.3300",
    "longitude": "44.3300",
    "temperature": 24,
    "rainfall": 680,
    "humidity": "66%",
    "season": "Ձմեռը ցուրտ, ամառը զով",
    "soilType": "Լեռնաշագանակագույն հողեր",
    "springDayTemp": 17,
    "summerDayTemp": 30
  },
  {
    "name": "Կարբի",
    "area": "Աշտարակի մարզ",
    "latitude": "40.3400",
    "longitude": "44.3400",
    "temperature": 26,
    "rainfall": 675,
    "humidity": "66%",
    "season": "Ձմեռը ցուրտ, ամառը զով",
    "soilType": "Լեռնաշագանակագույն հողեր",
    "springDayTemp": 19,
    "summerDayTemp": 32
  },
  {
    "name": "Հանքավան",
    "area": "Կոտայքի մարզ",
    "latitude": "40.4350",
    "longitude": "44.7170",
    "temperature": 25,
    "rainfall": 720,
    "humidity": "70%",
    "season": "Ձմեռը ցուրտ, ամառը զով",
    "soilType": "Լեռնաշագանակագույն հողեր",
    "springDayTemp": 19,
    "summerDayTemp": 31
  },
  {
    "name": "Մարմարիկ",
    "area": "Կոտայքի մարզ",
    "latitude": "40.4365",
    "longitude": "44.7430",
    "temperature": 24,
    "rainfall": 715,
    "humidity": "70%",
    "season": "Ձմեռը ցուրտ, ամառը զով",
    "soilType": "Լեռնաշագանակագույն հողեր",
    "springDayTemp": 18,
    "summerDayTemp": 29
  },
  {
    "name": "Արտավազդ",
    "area": "Կոտայքի մարզ",
    "latitude": "40.4280",
    "longitude": "44.7200",
    "temperature": 26,
    "rainfall": 710,
    "humidity": "69%",
    "season": "Ձմեռը ցուրտ, ամառը զով",
    "soilType": "Լեռնաշագանակագույն հողեր",
    "springDayTemp": 19,
    "summerDayTemp": 33
  },
  {
    "name": "Մեղրաձոր",
    "area": "Կոտայքի մարզ",
    "latitude": "40.4200",
    "longitude": "44.7100",
    "temperature": 24,
    "rainfall": 725,
    "humidity": "70%",
    "season": "Ձմեռը ցուրտ, ամառը զով",
    "soilType": "Լեռնաշագանակագույն հողեր",
    "springDayTemp": 19,
    "summerDayTemp": 30
  },
  {
    "name": "Աղավնաձոր",
    "area": "Կոտայքի մարզ",
    "latitude": "40.4500",
    "longitude": "44.7300",
    "temperature": 24,
    "rainfall": 730,
    "humidity": "71%",
    "season": "Ձմեռը ցուրտ, ամառը զով",
    "soilType": "Լեռնաշագանակագույն հողեր",
    "springDayTemp": 19,
    "summerDayTemp": 29
  },
  {
    "name": "Բջնի",
    "area": "Կոտայքի մարզ",
    "latitude": "40.3500",
    "longitude": "44.6200",
    "temperature": 25,
    "rainfall": 700,
    "humidity": "69%",
    "season": "Ձմեռը ցուրտ, ամառը զով",
    "soilType": "Լեռնաշագանակագույն հողեր",
    "springDayTemp": 17,
    "summerDayTemp": 33
  },
  {
    "name": "Քաղսի",
    "area": "Կոտայքի մարզ",
    "latitude": "40.4100",
    "longitude": "44.7000",
    "temperature": 26,
    "rainfall": 705,
    "humidity": "69%",
    "season": "Ձմեռը ցուրտ, ամառը զով",
    "soilType": "Լեռնաշագանակագույն հողեր",
    "springDayTemp": 19,
    "summerDayTemp": 32
  },
  {
    "name": "Սոլակ",
    "area": "Կոտայքի մարզ",
    "latitude": "40.4000",
    "longitude": "44.7100",
    "temperature": 24,
    "rainfall": 710,
    "humidity": "70%",
    "season": "Ձմեռը ցուրտ, ամառը զով",
    "soilType": "Լեռնաշագանակագույն հողեր",
    "springDayTemp": 16,
    "summerDayTemp": 31
  },
  {
    "name": "Արզական",
    "area": "Կոտայքի մարզ",
    "latitude": "40.3950",
    "longitude": "44.7050",
    "temperature": 24,
    "rainfall": 705,
    "humidity": "69%",
    "season": "Ձմեռը ցուրտ, ամառը զով",
    "soilType": "Լեռնաշագանակագույն հողեր",
    "springDayTemp": 16,
    "summerDayTemp": 33
  },
  {
    "name": "Սարալանք",
    "area": "Կոտայքի մարզ",
    "latitude": "40.3900",
    "longitude": "44.7000",
    "temperature": 26,
    "rainfall": 700,
    "humidity": "68%",
    "season": "Ձմեռը ցուրտ, ամառը զով",
    "soilType": "Լեռնաշագանակագույն հողեր",
    "springDayTemp": 18,
    "summerDayTemp": 33
  },
  {
    "name": "Արագյուղ",
    "area": "Կոտայքի մարզ",
    "latitude": "40.3800",
    "longitude": "44.6900",
    "temperature": 22,
    "rainfall": 695,
    "humidity": "68%",
    "season": "Ձմեռը ցուրտ, ամառը զով",
    "soilType": "Լեռնաշագանակագույն հողեր",
    "springDayTemp": 16,
    "summerDayTemp": 29
  },
  {
    "name": "Ալափարս",
    "area": "Կոտայքի մարզ",
    "latitude": "40.3700",
    "longitude": "44.6800",
    "temperature": 26,
    "rainfall": 690,
    "humidity": "68%",
    "season": "Ձմեռը ցուրտ, ամառը զով",
    "soilType": "Լեռնաշագանակագույն հողեր",
    "springDayTemp": 19,
    "summerDayTemp": 32
  },
  {
    "name": "Կարենիս",
    "area": "Կոտայքի մարզ",
    "latitude": "40.3600",
    "longitude": "44.6700",
    "temperature": 22,
    "rainfall": 685,
    "humidity": "68%",
    "season": "Ձմեռը ցուրտ, ամառը զով",
    "soilType": "Լեռնաշագանակագույն հողեր",
    "springDayTemp": 16,
    "summerDayTemp": 29
  },
  {
    "name": "Նոր Հաճն",
    "area": "Կոտայքի մարզ",
    "latitude": "40.3500",
    "longitude": "44.6600",
    "temperature": 24,
    "rainfall": 680,
    "humidity": "67%",
    "season": "Ձմեռը ցուրտ, ամառը զով",
    "soilType": "Լեռնաշագանակագույն հողեր",
    "springDayTemp": 17,
    "summerDayTemp": 32
  },
  {
    "name": "Նոր Արտամետ",
    "area": "Կոտայքի մարզ",
    "latitude": "40.3400",
    "longitude": "44.6500",
    "temperature": 26,
    "rainfall": 675,
    "humidity": "67%",
    "season": "Ձմեռը ցուրտ, ամառը զով",
    "soilType": "Լեռնաշագանակագույն հողեր",
    "springDayTemp": 19,
    "summerDayTemp": 33
  },
  {
    "name": "Զորավան",
    "area": "Կոտայքի մարզ",
    "latitude": "40.3300",
    "longitude": "44.6400",
    "temperature": 24,
    "rainfall": 670,
    "humidity": "67%",
    "season": "Ձմեռը ցուրտ, ամառը զով",
    "soilType": "Լեռնաշագանակագույն հողեր",
    "springDayTemp": 16,
    "summerDayTemp": 31
  },
  {
    "name": "Եղվարդ",
    "area": "Կոտայքի մարզ",
    "latitude": "40.3200",
    "longitude": "44.6300",
    "temperature": 24,
    "rainfall": 665,
    "humidity": "67%",
    "season": "Ձմեռը ցուրտ, ամառը զով",
    "soilType": "Լեռնաշագանակագույն հողեր",
    "springDayTemp": 19,
    "summerDayTemp": 30
  },
  {
    "name": "Քասախ",
    "area": "Կոտայքի մարզ",
    "latitude": "40.3100",
    "longitude": "44.6200",
    "temperature": 24,
    "rainfall": 660,
    "humidity": "66%",
    "season": "Ձմեռը ցուրտ, ամառը զով",
    "soilType": "Լեռնաշագանակագույն հողեր",
    "springDayTemp": 16,
    "summerDayTemp": 32
  },
  {
    "name": "Մրգաշեն",
    "area": "Կոտայքի մարզ",
    "latitude": "40.3000",
    "longitude": "44.6100",
    "temperature": 24,
    "rainfall": 555,
    "humidity": "66%",
    "season": "Ձմեռը ցուրտ, ամառը զով",
    "soilType": "Լեռնաշագանակագույն հողեր",
    "springDayTemp": 17,
    "summerDayTemp": 31
  },
  {
    "name": "Կոտայք",
    "area": "Կոտայքի մարզ",
    "latitude": "40.2600",
    "longitude": "44.6200",
    "temperature": 25,
    "rainfall": 650,
    "humidity": "67%",
    "season": "Ձմեռը ցուրտ, ամառը զով",
    "soilType": "Լեռնաշագանակագույն հողեր",
    "springDayTemp": 17,
    "summerDayTemp": 33
  },
  {
    "name": "Բալահովիտ",
    "area": "Կոտայքի մարզ",
    "latitude": "40.2500",
    "longitude": "44.6100",
    "temperature": 24,
    "rainfall": 660,
    "humidity": "67%",
    "season": "Ձմեռը ցուրտ, ամառը զով",
    "soilType": "Լեռնաշագանակագույն հողեր",
    "springDayTemp": 16,
    "summerDayTemp": 31
  },
  {
    "name": "Կաթնաղբյուր",
    "area": "Կոտայքի մարզ",
    "latitude": "40.2400",
    "longitude": "44.6000",
    "temperature": 24,
    "rainfall": 666,
    "humidity": "66%",
    "season": "Ձմեռը ցուրտ, ամառը զով",
    "soilType": "Լեռնաշագանակագույն հողեր",
    "springDayTemp": 16,
    "summerDayTemp": 33
  },
  {
    "name": "Քանաքեռավան",
    "area": "Կոտայքի մարզ",
    "latitude": "40.2300",
    "longitude": "44.5900",
    "temperature": 26,
    "rainfall": 650,
    "humidity": "66%",
    "season": "Ձմեռը ցուրտ, ամառը զով",
    "soilType": "Լեռնաշագանակագույն հողեր",
    "springDayTemp": 19,
    "summerDayTemp": 33
  },
  {
    "name": "Կամարիս",
    "area": "Կոտայքի մարզ",
    "latitude": "40.2200",
    "longitude": "44.5800",
    "temperature": 24,
    "rainfall": 645,
    "humidity": "66%",
    "season": "Ձմեռը ցուրտ, ամառը զով",
    "soilType": "Լեռնաշագանակագույն հողեր",
    "springDayTemp": 17,
    "summerDayTemp": 30
  },
  {
    "name": "Արամուս",
    "area": "Կոտայքի մարզ",
    "latitude": "40.2100",
    "longitude": "44.5700",
    "temperature": 24,
    "rainfall": 640,
    "humidity": "65%",
    "season": "Ձմեռը ցուրտ, ամառը զով",
    "soilType": "Լեռնաշագանակագույն հողեր",
    "springDayTemp": 18,
    "summerDayTemp": 31
  },
  {
    "name": "Ողջաբերդ",
    "area": "Կոտայքի մարզ",
    "latitude": "40.2000",
    "longitude": "44.5600",
    "temperature": 24,
    "rainfall": 635,
    "humidity": "65%",
    "season": "Ձմեռը ցուրտ, ամառը զով",
    "soilType": "Լեռնաշագանակագույն հողեր",
    "springDayTemp": 17,
    "summerDayTemp": 31
  },
  {
    "name": "Գեղադիր",
    "area": "Կոտայքի մարզ",
    "latitude": "40.1900",
    "longitude": "44.5500",
    "temperature": 23,
    "rainfall": 630,
    "humidity": "64%",
    "season": "Ձմեռը ցուրտ, ամառը զով",
    "soilType": "Լեռնաշագանակագույն հողեր",
    "springDayTemp": 17,
    "summerDayTemp": 29
  },
  {
    "name": "Գեղաշեն",
    "area": "Կոտայքի մարզ",
    "latitude": "40.1800",
    "longitude": "44.5400",
    "temperature": 24,
    "rainfall": 625,
    "humidity": "64%",
    "season": "Ձմեռը ցուրտ, ամառը զով",
    "soilType": "Լեռնաշագանակագույն հողեր",
    "springDayTemp": 17,
    "summerDayTemp": 31
  },
  {
    "name": "Գողթն",
    "area": "Կոտայքի մարզ",
    "latitude": "40.1700",
    "longitude": "44.5300",
    "temperature": 22,
    "rainfall": 620,
    "humidity": "63%",
    "season": "Ձմեռը ցուրտ, ամառը զով",
    "soilType": "Լեռնաշագանակագույն հողեր",
    "springDayTemp": 16,
    "summerDayTemp": 29
  },
  {
    "name": "Գառնի",
    "area": "Կոտայքի մարզ",
    "latitude": "40.1650",
    "longitude": "44.5250",
    "temperature": 22,
    "rainfall": 615,
    "humidity": "63%",
    "season": "Ձմեռը ցուրտ, ամառը զով",
    "soilType": "Լեռնաշագանակագույն հողեր",
    "springDayTemp": 16,
    "summerDayTemp": 29
  },
  {
    "name": "Հացավան",
    "area": "Կոտայքի մարզ",
    "latitude": "40.1600",
    "longitude": "44.5200",
    "temperature": 24,
    "rainfall": 610,
    "humidity": "63%",
    "season": "Ձմեռը ցուրտ, ամառը զով",
    "soilType": "Լեռնաշագանակագույն հողեր",
    "springDayTemp": 18,
    "summerDayTemp": 29
  },
  {
    "name": "Ռինդ",
    "area": "Վայոց Ձորի մարզ",
    "latitude": "39.6833",
    "longitude": "45.1167",
    "temperature": 24,
    "rainfall": 600,
    "humidity": "70%",
    "season": "Ձմեռը ցուրտ, ամառը զով",
    "soilType": "Լեռնաշագանակագույն հողեր",
    "springDayTemp": 19,
    "summerDayTemp": 29
  },
  {
    "name": "Գետափ",
    "area": "Վայոց Ձորի մարզ",
    "latitude": "39.6700",
    "longitude": "45.1000",
    "temperature": 22,
    "rainfall": 610,
    "humidity": "70%",
    "season": "Ձմեռը ցուրտ, ամառը զով",
    "soilType": "Լեռնաշագանակագույն հողեր",
    "springDayTemp": 18,
    "summerDayTemp": 27
  },
  {
    "name": "Գլաձոր",
    "area": "Վայոց Ձորի մարզ",
    "latitude": "39.6300",
    "longitude": "45.1200",
    "temperature": 22,
    "rainfall": 615,
    "humidity": "70%",
    "season": "Ձմեռը ցուրտ, ամառը զով",
    "soilType": "Լեռնաշագանակագույն հողեր",
    "springDayTemp": 17,
    "summerDayTemp": 27
  },
  {
    "name": "Եղեգնաձոր",
    "area": "Վայոց Ձորի մարզ",
    "latitude": "39.6000",
    "longitude": "45.1300",
    "temperature": 22,
    "rainfall": 620,
    "humidity": "70%",
    "season": "Ձմեռը ցուրտ, ամառը զով",
    "soilType": "Լեռնաշագանակագույն հողեր",
    "springDayTemp": 16,
    "summerDayTemp": 29
  },
  {
    "name": "Մալիշկա",
    "area": "Վայոց Ձորի մարզ",
    "latitude": "39.6400",
    "longitude": "45.0800",
    "temperature": 24,
    "rainfall": 605,
    "humidity": "70%",
    "season": "Ձմեռը ցուրտ, ամառը զով",
    "soilType": "Լեռնաշագանակագույն հողեր",
    "springDayTemp": 17,
    "summerDayTemp": 30
  },
  {
    "name": "Վայք",
    "area": "Վայոց Ձորի մարզ",
    "latitude": "39.6400",
    "longitude": "45.0700",
    "temperature": 24,
    "rainfall": 610,
    "humidity": "70%",
    "season": "Ձմեռը ցուրտ, ամառը զով",
    "soilType": "Լեռնաշագանակագույն հողեր",
    "springDayTemp": 18,
    "summerDayTemp": 30
  },
  {
    "name": "Ազատեկ",
    "area": "Վայոց Ձորի մարզ",
    "latitude": "39.6500",
    "longitude": "45.0900",
    "temperature": 23,
    "rainfall": 600,
    "humidity": "70%",
    "season": "Ձմեռը ցուրտ, ամառը զով",
    "soilType": "Լեռնաշագանակագույն հողեր",
    "springDayTemp": 17,
    "summerDayTemp": 29
  },
  {
    "name": "Զեդեա",
    "area": "Վայոց Ձորի մարզ",
    "latitude": "39.6700",
    "longitude": "45.1000",
    "temperature": 22,
    "rainfall": 605,
    "humidity": "70%",
    "season": "Ձմեռը ցուրտ, ամառը զով",
    "soilType": "Լեռնաշագանակագույն հողեր",
    "springDayTemp": 16,
    "summerDayTemp": 28
  },
  {
    "name": "Զառիթափ",
    "area": "Վայոց Ձորի մարզ",
    "latitude": "39.6800",
    "longitude": "45.1100",
    "temperature": 24,
    "rainfall": 610,
    "humidity": "70%",
    "season": "Ձմեռը ցուրտ, ամառը զով",
    "soilType": "Լեռնաշագանակագույն հողեր",
    "springDayTemp": 17,
    "summerDayTemp": 32
  },
  {
    "name": "Փոռ",
    "area": "Վայոց Ձորի մարզ",
    "latitude": "39.6900",
    "longitude": "45.1200",
    "temperature": 23,
    "rainfall": 615,
    "humidity": "70%",
    "season": "Ձմեռը ցուրտ, ամառը զով",
    "soilType": "Լեռնաշագանակագույն հողեր",
    "springDayTemp": 18,
    "summerDayTemp": 28
  },
  {
    "name": "Սերս",
    "area": "Վայոց Ձորի մարզ",
    "latitude": "39.7000",
    "longitude": "45.1300",
    "temperature": 22,
    "rainfall": 620,
    "humidity": "70%",
    "season": "Ձմեռը ցուրտ, ամառը զով",
    "soilType": "Լեռնաշագանակագույն հողեր",
    "springDayTemp": 16,
    "summerDayTemp": 28
  },
  {
    "name": "Ազնաբերդ",
    "area": "Վայոց Ձորի մարզ",
    "latitude": "39.7100",
    "longitude": "45.1400",
    "temperature": 24,
    "rainfall": 630,
    "humidity": "70%",
    "season": "Ձմեռը ցուրտ, ամառը զով",
    "soilType": "Լեռնաշագանակագույն հողեր",
    "springDayTemp": 16,
    "summerDayTemp": 32
  },
  {
    "name": "Բարձրունի",
    "area": "Վայոց Ձորի մարզ",
    "latitude": "39.7200",
    "longitude": "45.1500",
    "temperature": 24,
    "rainfall": 635,
    "humidity": "70%",
    "season": "Ձմեռը ցուրտ, ամառը զով",
    "soilType": "Լեռնաշագանակագույն հողեր",
    "springDayTemp": 17,
    "summerDayTemp": 30
  },
  {
    "name": "Մեղրի",
    "area": "Սյունիքի մարզ",
    "latitude": "39.2000",
    "longitude": "46.3167",
    "temperature": 26,
    "rainfall": 520,
    "humidity": "55%",
    "season": "Ձմեռը մեղմ, ամառը շոգ",
    "soilType": "Լեռնաշագանակագույն հողեր",
    "springDayTemp": 17,
    "summerDayTemp": 35
  },
  {
    "name": "Նռնաձոր",
    "area": "Սյունիքի մարզ",
    "latitude": "39.2500",
    "longitude": "46.3500",
    "temperature": 28,
    "rainfall": 530,
    "humidity": "56%",
    "season": "Ձմեռը մեղմ, ամառը շոգ",
    "soilType": "Լեռնաշագանակագույն հողեր",
    "springDayTemp": 20,
    "summerDayTemp": 35
  },
  {
    "name": "Սիսիան",
    "area": "Սյունիքի մարզ",
    "latitude": "39.2500",
    "longitude": "46.2000",
    "temperature": 26,
    "rainfall": 540,
    "humidity": "56%",
    "season": "Ձմեռը մեղմ, ամառը շոգ",
    "soilType": "Լեռնաշագանակագույն հողեր",
    "springDayTemp": 17,
    "summerDayTemp": 34
  },
  {
    "name": "Բոնակոթ",
    "area": "Սյունիքի մարզ",
    "latitude": "39.2700",
    "longitude": "46.2500",
    "temperature": 27,
    "rainfall": 535,
    "humidity": "56%",
    "season": "Ձմեռը մեղմ, ամառը շոգ",
    "soilType": "Լեռնաշագանակագույն հողեր",
    "springDayTemp": 19,
    "summerDayTemp": 35
  },
  {
    "name": "Աշոտավան",
    "area": "Սյունիքի մարզ",
    "latitude": "39.2600",
    "longitude": "46.2400",
    "temperature": 24,
    "rainfall": 535,
    "humidity": "56%",
    "season": "Ձմեռը մեղմ, ամառը շոգ",
    "soilType": "Լեռնաշագանակագույն հողեր",
    "springDayTemp": 17,
    "summerDayTemp": 30
  },
  {
    "name": "Բերդավան",
    "area": "Տավուշի մարզ",
    "latitude": "40.9500",
    "longitude": "45.3000",
    "temperature": 21,
    "rainfall": 690,
    "humidity": "72%",
    "season": "Ձմեռը ցուրտ, ամառը զով",
    "soilType": "Լեռնաշագանակագույն հողեր",
    "springDayTemp": 15,
    "summerDayTemp": 27
  },
  {
    "name": "Կոթի",
    "area": "Տավուշի մարզ",
    "latitude": "40.9000",
    "longitude": "45.3200",
    "temperature": 22,
    "rainfall": 680,
    "humidity": "71%",
    "season": "Ձմեռը ցուրտ, ամառը զով",
    "soilType": "Լեռնաշագանակագույն հողեր",
    "springDayTemp": 16,
    "summerDayTemp": 29
  },
  {
    "name": "Բերքաբեր",
    "area": "Տավուշի մարզ",
    "latitude": "40.9200",
    "longitude": "45.3100",
    "temperature": 22,
    "rainfall": 690,
    "humidity": "72%",
    "season": "Ձմեռը ցուրտ, ամառը զով",
    "soilType": "Լեռնաշագանակագույն հողեր",
    "springDayTemp": 16,
    "summerDayTemp": 29
  },
  {
    "name": "Պառավաքար",
    "area": "Տավուշի մարզ",
    "latitude": "40.9400",
    "longitude": "45.3200",
    "temperature": 22,
    "rainfall": 695,
    "humidity": "72%",
    "season": "Ձմեռը ցուրտ, ամառը զով",
    "soilType": "Լեռնաշագանակագույն հողեր",
    "springDayTemp": 16,
    "summerDayTemp": 27
  },
  {
    "name": "Տավուշ",
    "area": "Տավուշի մարզ",
    "latitude": "40.9800",
    "longitude": "45.3400",
    "temperature": 22,
    "rainfall": 700,
    "humidity": "73%",
    "season": "Ձմեռը ցուրտ, ամառը զով",
    "soilType": "Լեռնաշագանակագույն հողեր",
    "springDayTemp": 16,
    "summerDayTemp": 29
  },
  {
    "name": "Նորաշեն",
    "area": "Տավուշի մարզ",
    "latitude": "40.9700",
    "longitude": "45.3300",
    "temperature": 22,
    "rainfall": 695,
    "humidity": "72%",
    "season": "Ձմեռը ցուրտ, ամառը զով",
    "soilType": "Լեռնաշագանակագույն հողեր",
    "springDayTemp": 15,
    "summerDayTemp": 29
  },
  {
    "name": "Մարմաշեն",
    "area": "Շիրակի մարզ",
    "latitude": "40.9300",
    "longitude": "43.9000",
    "temperature": 20,
    "rainfall": 600,
    "humidity": "70%",
    "season": "Ձմեռը ցուրտ, ամառը զով",
    "soilType": "Լեռնային սևահողեր",
    "springDayTemp": 15,
    "summerDayTemp": 25
  },
  {
    "name": "Վահրամաբերդ",
    "area": "Շիրակի մարզ",
    "latitude": "40.9200",
    "longitude": "43.8900",
    "temperature": 22,
    "rainfall": 610,
    "humidity": "70%",
    "season": "Ձմեռը ցուրտ, ամառը զով",
    "soilType": "Լեռնային սևահողեր",
    "springDayTemp": 15,
    "summerDayTemp": 28
  },
  {
    "name": "Ամասիա",
    "area": "Շիրակի մարզ",
    "latitude": "40.8700",
    "longitude": "43.8500",
    "temperature": 20,
    "rainfall": 580,
    "humidity": "70%",
    "season": "Ձմեռը ցուրտ, ամառը զով",
    "soilType": "Լեռնային սևահողեր",
    "springDayTemp": 14,
    "summerDayTemp": 27
  },
  {
    "name": "Ախուրյան",
    "area": "Շիրակի մարզ",
    "latitude": "40.8500",
    "longitude": "43.8300",
    "temperature": 21,
    "rainfall": 570,
    "humidity": "69%",
    "season": "Ձմեռը ցուրտ, ամառը զով",
    "soilType": "Լեռնային սևահողեր",
    "springDayTemp": 14,
    "summerDayTemp": 28
  },
  {
    "name": "Ազատան",
    "area": "Շիրակի մարզ",
    "latitude": "40.8400",
    "longitude": "43.8200",
    "temperature": 20,
    "rainfall": 560,
    "humidity": "69%",
    "season": "Ձմեռը ցուրտ, ամառը զով",
    "soilType": "Լեռնային սևահողեր",
    "springDayTemp": 13,
    "summerDayTemp": 27
  },
  {
    "name": "Փանիկ",
    "area": "Շիրակի մարզ",
    "latitude": "40.8300",
    "longitude": "43.8100",
    "temperature": 20,
    "rainfall": 555,
    "humidity": "69%",
    "season": "Ձմեռը ցուրտ, ամառը զով",
    "soilType": "Լեռնային սևահողեր",
    "springDayTemp": 14,
    "summerDayTemp": 26
  },
  {
    "name": "Հոռոմ",
    "area": "Շիրակի մարզ",
    "latitude": "40.8200",
    "longitude": "43.8000",
    "temperature": 20,
    "rainfall": 550,
    "humidity": "69%",
    "season": "Ձմեռը ցուրտ, ամառը զով",
    "soilType": "Լեռնային սևահողեր",
    "springDayTemp": 15,
    "summerDayTemp": 26
  },
  {
    "name": "Մարալիկ",
    "area": "Շիրակի մարզ",
    "latitude": "40.8100",
    "longitude": "43.7900",
    "temperature": 20,
    "rainfall": 545,
    "humidity": "69%",
    "season": "Ձմեռը ցուրտ, ամառը զով",
    "soilType": "Լեռնային սևահողեր",
    "springDayTemp": 13,
    "summerDayTemp": 28
  },
  {
    "name": "Պեմզաշեն",
    "area": "Շիրակի մարզ",
    "latitude": "40.7900",
    "longitude": "43.7700",
    "temperature": 22,
    "rainfall": 535,
    "humidity": "68%",
    "season": "Ձմեռը ցուրտ, ամառը զով",
    "soilType": "Լեռնային սևահողեր",
    "springDayTemp": 16,
    "summerDayTemp": 28
  },
  {
    "name": "Սառնաղբյուր",
    "area": "Շիրակի մարզ",
    "latitude": "40.7800",
    "longitude": "43.7600",
    "temperature": 22,
    "rainfall": 530,
    "humidity": "68%",
    "season": "Ձմեռը ցուրտ, ամառը զով",
    "soilType": "Լեռնային սևահողեր",
    "springDayTemp": 16,
    "summerDayTemp": 28
  },
  {
    "name": "Արթիկ",
    "area": "Շիրակի մարզ",
    "latitude": "40.7700",
    "longitude": "43.7500",
    "temperature": 20,
    "rainfall": 525,
    "humidity": "68%",
    "season": "Ձմեռը ցուրտ, ամառը զով",
    "soilType": "Լեռնային սևահողեր",
    "springDayTemp": 13,
    "summerDayTemp": 27
  },
  {
    "name": "Հառիճ",
    "area": "Շիրակի մարզ",
    "latitude": "40.7600",
    "longitude": "43.7400",
    "temperature": 20,
    "rainfall": 520,
    "humidity": "68%",
    "season": "Ձմեռը ցուրտ, ամառը զով",
    "soilType": "Լեռնային սևահողեր",
    "springDayTemp": 15,
    "summerDayTemp": 26
  },
  {
    "name": "Մեծ Մանթաշ",
    "area": "Շիրակի մարզ",
    "latitude": "40.7500",
    "longitude": "43.7300",
    "temperature": 22,
    "rainfall": 715,
    "humidity": "68%",
    "season": "Ձմեռը ցուրտ, ամառը զով",
    "soilType": "Լեռնային սևահողեր",
    "springDayTemp": 16,
    "summerDayTemp": 27
  },
  {
    "name": "Ծաղկաշեն",
    "area": "Աշտարակի մարզ",
    "latitude": "40.2750",
    "longitude": "44.2750",
    "temperature": 25,
    "rainfall": 650,
    "humidity": "65%",
    "season": "Ձմեռը ցուրտ, ամառը զով",
    "soilType": "Լեռնային սևահողեր",
    "springDayTemp": 19,
    "summerDayTemp": 31
  },
  {
    "name": "Վարդենիս",
    "area": "Աշտարակի մարզ",
    "latitude": "40.2800",
    "longitude": "44.2800",
    "temperature": 24,
    "rainfall": 655,
    "humidity": "65%",
    "season": "Ձմեռը ցուրտ, ամառը զով",
    "soilType": "Լեռնային սևահողեր",
    "springDayTemp": 19,
    "summerDayTemp": 29
  },
  {
    "name": "Քուչակ",
    "area": "Աշտարակի մարզ",
    "latitude": "40.2650",
    "longitude": "44.2650",
    "temperature": 24,
    "rainfall": 645,
    "humidity": "65%",
    "season": "Ձմեռը ցուրտ, ամառը զով",
    "soilType": "Լեռնային սևահողեր",
    "springDayTemp": 17,
    "summerDayTemp": 32
  },
  {
    "name": "Չքնաղ",
    "area": "Աշտարակի մարզ",
    "latitude": "40.2600",
    "longitude": "44.2600",
    "temperature": 22,
    "rainfall": 640,
    "humidity": "65%",
    "season": "Ձմեռը ցուրտ, ամառը զով",
    "soilType": "Լեռնային սևահողեր",
    "springDayTemp": 18,
    "summerDayTemp": 27
  },
  {
    "name": "Հրազդան",
    "area": "Կոտայքի մարզ",
    "latitude": "40.5076",
    "longitude": "44.9411",
    "temperature": 26,
    "rainfall": 720,
    "humidity": "70%",
    "season": "Ձմեռը ցուրտ, ամառը զով",
    "soilType": "Լեռնային սևահողեր",
    "springDayTemp": 18,
    "summerDayTemp": 33
  },
  {
    "name": "Լեռնանիստ",
    "area": "Կոտայքի մարզ",
    "latitude": "40.5190",
    "longitude": "44.9300",
    "temperature": 23,
    "rainfall": 525,
    "humidity": "70%",
    "season": "Ձմեռը ցուրտ, ամառը զով",
    "soilType": "Լեռնային սևահողեր",
    "springDayTemp": 16,
    "summerDayTemp": 30
  },
  {
    "name": "Չարենցավան",
    "area": "Կոտայքի մարզ",
    "latitude": "40.4776",
    "longitude": "44.9515",
    "temperature": 24,
    "rainfall": 710,
    "humidity": "70%",
    "season": "Ձմեռը ցուրտ, ամառը զով",
    "soilType": "Լեռնային սևահողեր",
    "springDayTemp": 16,
    "summerDayTemp": 31
  },
  {
    "name": "Ֆանտան",
    "area": "Կոտայքի մարզ",
    "latitude": "40.4700",
    "longitude": "44.9400",
    "temperature": 22,
    "rainfall": 715,
    "humidity": "69%",
    "season": "Ձմեռը ցուրտ, ամառը զով",
    "soilType": "Լեռնային սևահողեր",
    "springDayTemp": 16,
    "summerDayTemp": 29
  },
  {
    "name": "Բյուրեղավան",
    "area": "Կոտայքի մարզ",
    "latitude": "40.4600",
    "longitude": "44.9300",
    "temperature": 24,
    "rainfall": 620,
    "humidity": "69%",
    "season": "Ձմեռը ցուրտ, ամառը զով",
    "soilType": "Լեռնային սևահողեր",
    "springDayTemp": 19,
    "summerDayTemp": 30
  },
  {
    "name": "Ակունք",
    "area": "Կոտայքի մարզ",
    "latitude": "40.4400",
    "longitude": "44.9100",
    "temperature": 24,
    "rainfall": 705,
    "humidity": "69%",
    "season": "Ձմեռը ցուրտ, ամառը զով",
    "soilType": "Լեռնային սևահողեր",
    "springDayTemp": 18,
    "summerDayTemp": 29
  },
  {
    "name": "Ջրվեժ",
    "area": "Կոտայքի մարզ",
    "latitude": "40.4300",
    "longitude": "44.9000",
    "temperature": 23,
    "rainfall": 700,
    "humidity": "69%",
    "season": "Ձմեռը ցուրտ, ամառը զով",
    "soilType": "Լեռնային սևահողեր",
    "springDayTemp": 17,
    "summerDayTemp": 29
  },
  {
    "name": "Սարուխան",
    "area": "Գեղարքունիքի մարզ",
    "latitude": "40.6000",
    "longitude": "45.1000",
    "temperature": 26,
    "rainfall": 650,
    "humidity": "72%",
    "season": "Ձմեռը սառը, ամառը մեղմ",
    "soilType": "Լեռնային սևահողեր",
    "springDayTemp": 19,
    "summerDayTemp": 32
  },
  {
    "name": "Կարմիրգյուղ",
    "area": "Գեղարքունիքի մարզ",
    "latitude": "40.6200",
    "longitude": "45.1200",
    "temperature": 25,
    "rainfall": 655,
    "humidity": "72%",
    "season": "Ձմեռը սառը, ամառը մեղմ",
    "soilType": "Լեռնային սևահողեր",
    "springDayTemp": 19,
    "summerDayTemp": 31
  },
  {
    "name": "Ձորագյուղ",
    "area": "Գեղարքունիքի մարզ",
    "latitude": "40.6300",
    "longitude": "45.1300",
    "temperature": 23,
    "rainfall": 660,
    "humidity": "73%",
    "season": "Ձմեռը սառը, ամառը մեղմ",
    "soilType": "Լեռնային սևահողեր",
    "springDayTemp": 18,
    "summerDayTemp": 28
  },
  {
    "name": "Ծակքար",
    "area": "Գեղարքունիքի մարզ",
    "latitude": "40.6400",
    "longitude": "45.1400",
    "temperature": 22,
    "rainfall": 665,
    "humidity": "73%",
    "season": "Ձմեռը սառը, ամառը մեղմ",
    "soilType": "Լեռնային սևահողեր",
    "springDayTemp": 17,
    "summerDayTemp": 27
  },
  {
    "name": "Ներքին Գետաշեն",
    "area": "Գեղարքունիքի մարզ",
    "latitude": "40.6500",
    "longitude": "45.1500",
    "temperature": 22,
    "rainfall": 670,
    "humidity": "73%",
    "season": "Ձմեռը սառը, ամառը մեղմ",
    "soilType": "Լեռնային սևահողեր",
    "springDayTemp": 16,
    "summerDayTemp": 27
  },
  {
    "name": "Լիճք",
    "area": "Գեղարքունիքի մարզ",
    "latitude": "40.6600",
    "longitude": "45.1600",
    "temperature": 23,
    "rainfall": 675,
    "humidity": "74%",
    "season": "Ձմեռը սառը, ամառը մեղմ",
    "soilType": "Լեռնային սևահողեր",
    "springDayTemp": 19,
    "summerDayTemp": 27
  },
  {
    "name": "Աստղաձոր",
    "area": "Գեղարքունիքի մարզ",
    "latitude": "40.6700",
    "longitude": "45.1700",
    "temperature": 22,
    "rainfall": 680,
    "humidity": "74%",
    "season": "Ձմեռը սառը, ամառը մեղմ",
    "soilType": "Լեռնային սևահողեր",
    "springDayTemp": 17,
    "summerDayTemp": 27
  },
  {
    "name": "Երվանդաշատ",
    "area": "Արմավիրի մարզ",
    "latitude": "40.1700",
    "longitude": "44.2700",
    "temperature": 25,
    "rainfall": 425,
    "humidity": "65%",
    "season": "Ձմեռը մեղմ, ամառը տաք",
    "soilType": "Լեռնային գորշ կիսանապատային հողեր",
    "springDayTemp": 19,
    "summerDayTemp": 31
  },
  {
    "name": "Մյասնիկյան",
    "area": "Արմավիրի մարզ",
    "latitude": "40.1500",
    "longitude": "44.2500",
    "temperature": 24,
    "rainfall": 420,
    "humidity": "65%",
    "season": "Ձմեռը մեղմ, ամառը տաք",
    "soilType": "Լեռնային գորշ կիսանապատային հողեր",
    "springDayTemp": 17,
    "summerDayTemp": 30
  },
  {
    "name": "Լեռնագոգ",
    "area": "Արմավիրի մարզ",
    "latitude": "40.1600",
    "longitude": "44.2400",
    "temperature": 24,
    "rainfall": 615,
    "humidity": "65%",
    "season": "Ձմեռը մեղմ, ամառը տաք",
    "soilType": "Լեռնային գորշ կիսանապատային հողեր",
    "springDayTemp": 16,
    "summerDayTemp": 31
  },
  {
    "name": "Քարակերտ",
    "area": "Արմավիրի մարզ",
    "latitude": "40.1800",
    "longitude": "44.2300",
    "temperature": 26,
    "rainfall": 610,
    "humidity": "64%",
    "season": "Ձմեռը մեղմ, ամառը տաք",
    "soilType": "Լեռնային գորշ կիսանապատային հողեր",
    "springDayTemp": 19,
    "summerDayTemp": 33
  },
  {
    "name": "Արգինա",
    "area": "Արմավիրի մարզ",
    "latitude": "40.1700",
    "longitude": "44.2200",
    "temperature": 24,
    "rainfall": 615,
    "humidity": "64%",
    "season": "Ձմեռը մեղմ, ամառը տաք",
    "soilType": "Լեռնային գորշ կիսանապատային հողեր",
    "springDayTemp": 17,
    "summerDayTemp": 31
  },
  {
    "name": "Ուրցաձոր",
    "area": "Արարատի մարզ",
    "latitude": "39.9700",
    "longitude": "44.7700",
    "temperature": 23,
    "rainfall": 610,
    "humidity": "63%",
    "season": "Ձմեռը մեղմ, ամառը տաք",
    "soilType": "Լեռնային գորշ կիսանապատային հողեր",
    "springDayTemp": 16,
    "summerDayTemp": 30
  },
  {
    "name": "Շաղափ",
    "area": "Արարատի մարզ",
    "latitude": "39.9800",
    "longitude": "44.7800",
    "temperature": 25,
    "rainfall": 615,
    "humidity": "63%",
    "season": "Ձմեռը մեղմ, ամառը տաք",
    "soilType": "Լեռնային գորշ կիսանապատային հողեր",
    "springDayTemp": 18,
    "summerDayTemp": 32
  },
  {
    "name": "Վարդաշատ",
    "area": "Արարատի մարզ",
    "latitude": "39.9900",
    "longitude": "44.7900",
    "temperature": 24,
    "rainfall": 620,
    "humidity": "64%",
    "season": "Ձմեռը մեղմ, ամառը տաք",
    "soilType": "Լեռնային գորշ կիսանապատային հողեր",
    "springDayTemp": 18,
    "summerDayTemp": 29
  },
  {
    "name": "Զանգակատուն",
    "area": "Արարատի մարզ",
    "latitude": "40.0000",
    "longitude": "44.8000",
    "temperature": 24,
    "rainfall": 625,
    "humidity": "64%",
    "season": "Ձմեռը մեղմ, ամառը տաք",
    "soilType": "Լեռնային գորշ կիսանապատային հողեր",
    "springDayTemp": 17,
    "summerDayTemp": 31
  },
  {
    "name": "Վանաձոր",
    "area": "Լոռու մարզ",
    "latitude": "41.1261",
    "longitude": "44.6981",
    "temperature": 18,
    "rainfall": 650,
    "humidity": "70%",
    "season": "Ձմեռը սառնամանիք, ամառը մեղմ",
    "soilType": "Լեռնանտառային գորշ և դարչնագույն հողեր",
    "springDayTemp": 19,
    "summerDayTemp": 28
  },
  {
    "name": "Դարպաս",
    "area": "Լոռու մարզ",
    "latitude": "41.1500",
    "longitude": "44.7200",
    "temperature": 19,
    "rainfall": 660,
    "humidity": "70%",
    "season": "Ձմեռը սառնամանիք, ամառը մեղմ",
    "soilType": "Լեռնանտառային գորշ և դարչնագույն հողեր",
    "springDayTemp": 18,
    "summerDayTemp": 28
  },
  {
    "name": "Կուրթան",
    "area": "Լոռու մարզ",
    "latitude": "41.1400",
    "longitude": "44.7100",
    "temperature": 19,
    "rainfall": 655,
    "humidity": "70%",
    "season": "Ձմեռը սառնամանիք, ամառը մեղմ",
    "soilType": "Լեռնանտառային գորշ և դարչնագույն հողեր",
    "springDayTemp": 18,
    "summerDayTemp": 31
  },
  {
    "name": "Դսեղ",
    "area": "Լոռու մարզ",
    "latitude": "41.1300",
    "longitude": "44.7000",
    "temperature": 22,
    "rainfall": 650,
    "humidity": "70%",
    "season": "Ձմեռը սառնամանիք, ամառը մեղմ",
    "soilType": "Լեռնանտառային գորշ և դարչնագույն հողեր",
    "springDayTemp": 19,
    "summerDayTemp": 28
  },
  {
    "name": "Եղեգնուտ",
    "area": "Լոռու մարզ",
    "latitude": "41.1200",
    "longitude": "44.6900",
    "temperature": 24,
    "rainfall": 645,
    "humidity": "70%",
    "season": "Ձմեռը սառնամանիք, ամառը մեղմ",
    "soilType": "Լեռնանտառային գորշ և դարչնագույն հողեր",
    "springDayTemp": 19,
    "summerDayTemp": 29
  },
  {
    "name": "Քարինջ",
    "area": "Լոռու մարզ",
    "latitude": "41.1100",
    "longitude": "44.6800",
    "temperature": 23,
    "rainfall": 640,
    "humidity": "69%",
    "season": "Ձմեռը սառնամանիք, ամառը մեղմ",
    "soilType": "Լեռնանտառային գորշ և դարչնագույն հողեր",
    "springDayTemp": 17,
    "summerDayTemp": 29
  },
  {
    "name": "Ահնիձոր",
    "area": "Լոռու մարզ",
    "latitude": "41.1000",
    "longitude": "44.6700",
    "temperature": 24,
    "rainfall": 635,
    "humidity": "69%",
    "season": "Ձմեռը սառնամանիք, ամառը մեղմ",
    "soilType": "Լեռնանտառային գորշ և դարչնագույն հողեր",
    "springDayTemp": 19,
    "summerDayTemp": 30
  },
  {
    "name": "Թումանյան",
    "area": "Լոռու մարզ",
    "latitude": "41.0900",
    "longitude": "44.6600",
    "temperature": 24,
    "rainfall": 630,
    "humidity": "69%",
    "season": "Ձմեռը սառնամանիք, ամառը մեղմ",
    "soilType": "Լեռնանտառային գորշ և դարչնագույն հողեր",
    "springDayTemp": 17,
    "summerDayTemp": 31
  },
  {
    "name": "Հաղպատ",
    "area": "Լոռու մարզ",
    "latitude": "41.0800",
    "longitude": "44.6500",
    "temperature": 22,
    "rainfall": 625,
    "humidity": "69%",
    "season": "Ձմեռը սառնամանիք, ամառը մեղմ",
    "soilType": "Լեռնանտառային գորշ և դարչնագույն հողեր",
    "springDayTemp": 18,
    "summerDayTemp": 27
  },
  {
    "name": "Օձուն",
    "area": "Լոռու մարզ",
    "latitude": "41.0700",
    "longitude": "44.6400",
    "temperature": 22,
    "rainfall": 620,
    "humidity": "68%",
    "season": "Ձմեռը սառնամանիք, ամառը մեղմ",
    "soilType": "Լեռնանտառային գորշ և դարչնագույն հողեր",
    "springDayTemp": 16,
    "summerDayTemp": 29
  },
  {
    "name": "Ալավերդի",
    "area": "Լոռու մարզ",
    "latitude": "41.0600",
    "longitude": "44.6300",
    "temperature": 23,
    "rainfall": 615,
    "humidity": "68%",
    "season": "Ձմեռը սառնամանիք, ամառը մեղմ",
    "soilType": "Լեռնանտառային գորշ և դարչնագույն հողեր",
    "springDayTemp": 17,
    "summerDayTemp": 29
  },
  {
    "name": "Ախթալա",
    "area": "Լոռու մարզ",
    "latitude": "41.0500",
    "longitude": "44.6200",
    "temperature": 24,
    "rainfall": 610,
    "humidity": "68%",
    "season": "Ձմեռը սառնամանիք, ամառը մեղմ",
    "soilType": "Լեռնանտառային գորշ և դարչնագույն հողեր",
    "springDayTemp": 17,
    "summerDayTemp": 31
  },
  {
    "name": "Շամլուղ",
    "area": "Լոռու մարզ",
    "latitude": "41.0400",
    "longitude": "44.6100",
    "temperature": 24,
    "rainfall": 605,
    "humidity": "68%",
    "season": "Ձմեռը սառնամանիք, ամառը մեղմ",
    "soilType": "Լեռնանտառային գորշ և դարչնագույն հողեր",
    "springDayTemp": 16,
    "summerDayTemp": 32
  },
  {
    "name": "Դեքեդավան",
    "area": "Տավուշի մարզ",
    "latitude": "40.9400",
    "longitude": "45.2700",
    "temperature": 22,
    "rainfall": 670,
    "humidity": "74%",
    "season": "Ձմեռը սառնամանիք, ամառը մեղմ",
    "soilType": "Լեռնանտառային գորշ և դարչնագույն հողեր",
    "springDayTemp": 15,
    "summerDayTemp": 29
  },
  {
    "name": "Բագրատաշեն",
    "area": "Տավուշի մարզ",
    "latitude": "40.9500",
    "longitude": "45.2800",
    "temperature": 22,
    "rainfall": 675,
    "humidity": "74%",
    "season": "Ձմեռը սառնամանիք, ամառը մեղմ",
    "soilType": "Լեռնանտառային գորշ և դարչնագույն հողեր",
    "springDayTemp": 15,
    "summerDayTemp": 28
  },
  {
    "name": "Պտղավան",
    "area": "Տավուշի մարզ",
    "latitude": "40.9600",
    "longitude": "45.2900",
    "temperature": 22,
    "rainfall": 680,
    "humidity": "75%",
    "season": "Ձմեռը սառնամանիք, ամառը մեղմ",
    "soilType": "Լեռնանտառային գորշ և դարչնագույն հողեր",
    "springDayTemp": 16,
    "summerDayTemp": 27
  },
  {
    "name": "Հաղթանակ",
    "area": "Տավուշի մարզ",
    "latitude": "40.9700",
    "longitude": "45.3000",
    "temperature": 22,
    "rainfall": 685,
    "humidity": "75%",
    "season": "Ձմեռը սառնամանիք, ամառը մեղմ",
    "soilType": "Լեռնանտառային գորշ և դարչնագույն հողեր",
    "springDayTemp": 17,
    "summerDayTemp": 27
  },
  {
    "name": "Այրում",
    "area": "Տավուշի մարզ",
    "latitude": "40.9800",
    "longitude": "45.3100",
    "temperature": 23,
    "rainfall": 690,
    "humidity": "75%",
    "season": "Ձմեռը սառնամանիք, ամառը մեղմ",
    "soilType": "Լեռնանտառային գորշ և դարչնագույն հողեր",
    "springDayTemp": 17,
    "summerDayTemp": 29
  },
  {
    "name": "Արճիս",
    "area": "Տավուշի մարզ",
    "latitude": "40.9900",
    "longitude": "45.3200",
    "temperature": 23,
    "rainfall": 695,
    "humidity": "75%",
    "season": "Ձմեռը սառնամանիք, ամառը մեղմ",
    "soilType": "Լեռնանտառային գորշ և դարչնագույն հողեր",
    "springDayTemp": 17,
    "summerDayTemp": 29
  },
  {
    "name": "Ջուևան",
    "area": "Տավուշի մարզ",
    "latitude": "41.0000",
    "longitude": "45.3300",
    "temperature": 22,
    "rainfall": 700,
    "humidity": "75%",
    "season": "Ձմեռը սառնամանիք, ամառը մեղմ",
    "soilType": "Լեռնանտառային գորշ և դարչնագույն հողեր",
    "springDayTemp": 16,
    "summerDayTemp": 29
  },
  {
    "name": "Կիրանց",
    "area": "Տավուշի մարզ",
    "latitude": "41.0100",
    "longitude": "45.3400",
    "temperature": 20,
    "rainfall": 705,
    "humidity": "75%",
    "season": "Ձմեռը սառնամանիք, ամառը մեղմ",
    "soilType": "Լեռնանտառային գորշ և դարչնագույն հողեր",
    "springDayTemp": 14,
    "summerDayTemp": 27
  },
  {
    "name": "Սևքար",
    "area": "Տավուշի մարզ",
    "latitude": "41.0200",
    "longitude": "45.3500",
    "temperature": 22,
    "rainfall": 710,
    "humidity": "76%",
    "season": "Ձմեռը սառնամանիք, ամառը մեղմ",
    "soilType": "Լեռնանտառային գորշ և դարչնագույն հողեր",
    "springDayTemp": 16,
    "summerDayTemp": 28
  },
  {
    "name": "Այգեհովիտ",
    "area": "Տավուշի մարզ",
    "latitude": "41.0300",
    "longitude": "45.3600",
    "temperature": 20,
    "rainfall": 715,
    "humidity": "76%",
    "season": "Ձմեռը սառնամանիք, ամառը մեղմ",
    "soilType": "Լեռնանտառային գորշ և դարչնագույն հողեր",
    "springDayTemp": 14,
    "summerDayTemp": 26
  },
  {
    "name": "Իջևան",
    "area": "Տավուշի մարզ",
    "latitude": "41.0400",
    "longitude": "45.3700",
    "temperature": 22,
    "rainfall": 720,
    "humidity": "76%",
    "season": "Ձմեռը սառնամանիք, ամառը մեղմ",
    "soilType": "Լեռնանտառային գորշ և դարչնագույն հողեր",
    "springDayTemp": 16,
    "summerDayTemp": 29
  },
  {
    "name": "Գանձաքար",
    "area": "Տավուշի մարզ",
    "latitude": "41.0500",
    "longitude": "45.3800",
    "temperature": 22,
    "rainfall": 725,
    "humidity": "76%",
    "season": "Ձմեռը սառնամանիք, ամառը մեղմ",
    "soilType": "Լեռնանտառային գորշ և դարչնագույն հողեր",
    "springDayTemp": 14,
    "summerDayTemp": 29
  },
  {
    "name": "Արծվաբերդ",
    "area": "Տավուշի մարզ",
    "latitude": "41.0600",
    "longitude": "45.3900",
    "temperature": 22,
    "rainfall": 730,
    "humidity": "77%",
    "season": "Ձմեռը սառնամանիք, ամառը մեղմ",
    "soilType": "Լեռնանտառային գորշ և դարչնագույն հողեր",
    "springDayTemp": 17,
    "summerDayTemp": 27
  },
  {
    "name": "Վերին Կարմիրաղբյուր",
    "area": "Տավուշի մարզ",
    "latitude": "41.0700",
    "longitude": "45.4000",
    "temperature": 22,
    "rainfall": 735,
    "humidity": "77%",
    "season": "Ձմեռը սառնամանիք, ամառը մեղմ",
    "soilType": "Լեռնանտառային գորշ և դարչնագույն հողեր",
    "springDayTemp": 17,
    "summerDayTemp": 27
  },
  {
    "name": "Լուսաձոր",
    "area": "Տավուշի մարզ",
    "latitude": "41.0800",
    "longitude": "45.4100",
    "temperature": 20,
    "rainfall": 740,
    "humidity": "77%",
    "season": "Ձմեռը սառնամանիք, ամառը մեղմ",
    "soilType": "Լեռնանտառային գորշ և դարչնագույն հողեր",
    "springDayTemp": 14,
    "summerDayTemp": 26
  },
  {
    "name": "Դիտավան",
    "area": "Տավուշի մարզ",
    "latitude": "41.0900",
    "longitude": "45.4200",
    "temperature": 21,
    "rainfall": 745,
    "humidity": "77%",
    "season": "Ձմեռը սառնամանիք, ամառը մեղմ",
    "soilType": "Լեռնանտառային գորշ և դարչնագույն հողեր",
    "springDayTemp": 16,
    "summerDayTemp": 26
  },
  {
    "name": "Ոսկեվան",
    "area": "Տավուշի մարզ",
    "latitude": "41.1000",
    "longitude": "45.4300",
    "temperature": 21,
    "rainfall": 750,
    "humidity": "78%",
    "season": "Ձմեռը սառնամանիք, ամառը մեղմ",
    "soilType": "Լեռնանտառային գորշ և դարչնագույն հողեր",
    "springDayTemp": 15,
    "summerDayTemp": 27
  },
  {
    "name": "Հայկավան",
    "area": "Արմավիրի մարզ",
    "latitude": "40.1450",
    "longitude": "44.2670",
    "temperature": 25,
    "rainfall": 620,
    "humidity": "65%",
    "season": "Ձմեռը մեղմ, ամառը տաք",
    "soilType": "Մարգագետնատափաստանային հողեր",
    "springDayTemp": 18,
    "summerDayTemp": 32
  },
  {
    "name": "Մրգավան",
    "area": "Արմավիրի մարզ",
    "latitude": "40.1465",
    "longitude": "44.2680",
    "temperature": 24,
    "rainfall": 620,
    "humidity": "65%",
    "season": "Ձմեռը մեղմ, ամառը տաք",
    "soilType": "Մարգագետնատափաստանային հողեր",
    "springDayTemp": 18,
    "summerDayTemp": 31
  },
  {
    "name": "Արմավիր գյուղ",
    "area": "Արմավիրի մարզ",
    "latitude": "40.1490",
    "longitude": "44.2700",
    "temperature": 25,
    "rainfall": 625,
    "humidity": "65%",
    "season": "Ձմեռը մեղմ, ամառը տաք",
    "soilType": "Մարգագետնատափաստանային հողեր",
    "springDayTemp": 18,
    "summerDayTemp": 32
  },
  {
    "name": "Մրգաշատ",
    "area": "Արմավիրի մարզ",
    "latitude": "40.1500",
    "longitude": "44.2750",
    "temperature": 24,
    "rainfall": 625,
    "humidity": "65%",
    "season": "Ձմեռը մեղմ, ամառը տաք",
    "soilType": "Մարգագետնատափաստանային հողեր",
    "springDayTemp": 19,
    "summerDayTemp": 30
  },
  {
    "name": "Արևիկ",
    "area": "Արմավիրի մարզ",
    "latitude": "40.1520",
    "longitude": "44.2780",
    "temperature": 25,
    "rainfall": 625,
    "humidity": "65%",
    "season": "Ձմեռը մեղմ, ամառը տաք",
    "soilType": "Մարգագետնատափաստանային հողեր",
    "springDayTemp": 18,
    "summerDayTemp": 32
  },
  {
    "name": "Այգեշատ",
    "area": "Արմավիրի մարզ",
    "latitude": "40.1550",
    "longitude": "44.2800",
    "temperature": 25,
    "rainfall": 620,
    "humidity": "66%",
    "season": "Ձմեռը մեղմ, ամառը տաք",
    "soilType": "Մարգագետնատափաստանային հողեր",
    "springDayTemp": 19,
    "summerDayTemp": 31
  },
  {
    "name": "Փշատավան",
    "area": "Արմավիրի մարզ",
    "latitude": "40.1570",
    "longitude": "44.2820",
    "temperature": 23,
    "rainfall": 630,
    "humidity": "66%",
    "season": "Ձմեռը մեղմ, ամառը տաք",
    "soilType": "Մարգագետնատափաստանային հողեր",
    "springDayTemp": 17,
    "summerDayTemp": 29
  },
  {
    "name": "Մարտունի",
    "area": "Գեղարքունիքի մարզ",
    "latitude": "39.8500",
    "longitude": "45.7000",
    "temperature": 22,
    "rainfall": 650,
    "humidity": "72%",
    "season": "Ձմեռը սառը, ամառը մեղմ",
    "soilType": "Գետահովտամարգագետնային հողեր",
    "springDayTemp": 15,
    "summerDayTemp": 28
  },
  {
    "name": "Վարդենիկ",
    "area": "Գեղարքունիքի մարզ",
    "latitude": "39.8300",
    "longitude": "45.7200",
    "temperature": 24,
    "rainfall": 655,
    "humidity": "72%",
    "season": "Ձմեռը սառը, ամառը մեղմ",
    "soilType": "Գետահովտամարգագետնային հողեր",
    "springDayTemp": 18,
    "summerDayTemp": 29
  },
  {
    "name": "Արծվանիստ",
    "area": "Գեղարքունիքի մարզ",
    "latitude": "39.8100",
    "longitude": "45.7400",
    "temperature": 24,
    "rainfall": 660,
    "humidity": "72%",
    "season": "Ձմեռը սառը, ամառը մեղմ",
    "soilType": "Գետահովտամարգագետնային հողեր",
    "springDayTemp": 16,
    "summerDayTemp": 32
  },
  {
    "name": "Ծովինար",
    "area": "Գեղարքունիքի մարզ",
    "latitude": "39.7900",
    "longitude": "45.7600",
    "temperature": 22,
    "rainfall": 665,
    "humidity": "73%",
    "season": "Ձմեռը սառը, ամառը մեղմ",
    "soilType": "Գետահովտամարգագետնային հողեր",
    "springDayTemp": 15,
    "summerDayTemp": 28
  },
  {
    "name": "Վաղաշեն",
    "area": "Գեղարքունիքի մարզ",
    "latitude": "39.7700",
    "longitude": "45.7800",
    "temperature": 24,
    "rainfall": 670,
    "humidity": "73%",
    "season": "Ձմեռը սառը, ամառը մեղմ",
    "soilType": "Գետահովտամարգագետնային հողեր",
    "springDayTemp": 19,
    "summerDayTemp": 28
  },
  {
    "name": "Գավառ",
    "area": "Գեղարքունիքի մարզ",
    "latitude": "39.7300",
    "longitude": "45.8200",
    "temperature": 25,
    "rainfall": 680,
    "humidity": "73%",
    "season": "Ձմեռը սառը, ամառը մեղմ",
    "soilType": "Գետահովտամարգագետնային հողեր",
    "springDayTemp": 18,
    "summerDayTemp": 32
  },
  {
    "name": "Նորատուս",
    "area": "Գեղարքունիքի մարզ",
    "latitude": "39.7100",
    "longitude": "45.8400",
    "temperature": 25,
    "rainfall": 685,
    "humidity": "74%",
    "season": "Ձմեռը սառը, ամառը մեղմ",
    "soilType": "Գետահովտամարգագետնային հողեր",
    "springDayTemp": 19,
    "summerDayTemp": 31
  },
  {
    "name": "Մեծ Սեպասար",
    "area": "Շիրակի մարզ",
    "latitude": "40.8000",
    "longitude": "43.8500",
    "temperature": 20,
    "rainfall": 600,
    "humidity": "68%",
    "season": "Ձմեռը սառը, ամառը մեղմ",
    "soilType": "Գետահովտամարգագետնային հողեր",
    "springDayTemp": 14,
    "summerDayTemp": 26
  }
]
